{
  "title": "Directory",
  "bodyClass": "person",
  "breadcrumbs": [
    {
      "url": "../04-pages-00-homepage/04-pages-00-homepage.html",
      "linkTitle": "Home"
    },
    {
      "url": "",
      "linkTitle": "Directory"
    }
  ],
  "peopleGroups": [
    {
      "peopleGroupTitle": "Faculty",
      "peopleList": [
        {
          "teaserPerson": true,
          "img": {
            "thumbnail": {
              "src": "http://lorempixel.com/200/200/people/1",
              "alt": "News photo"
            }
          },
          "address": {
            "number": "2944",
            "street": "Peach Street",
            "city": "Davis",
            "state": "CA",
            "zip": "95666"
          },
          "person": {
            "headline": "Ms. Janeka Elodia",
            "title": "Web Developer",
            "dept": "IET, Web Development",
            "location": "Suite 12, Jackson Building",
            "address": true,
            "officeHours": "9AM-5PM",
            "contactInfo": true
          },
          "phoneNum": "(530) 752-8126",
          "emailAdd": "janeka@ucdavis.edu",
          "webLink": "www.janeka.com",
          "teaserSummary": false
        },
        {
          "teaserPerson": true,
          "img": {
            "thumbnail": {
              "src": "/public/images/sample/person-profile.png",
              "alt": "User image placeholder."
            }
          },
          "person": {
            "headline": "Mrs. Felicita Roberta",
            "title": "Analyst",
            "dept": "Applied Science",
            "location": false,
            "address": true,
            "officeHours": "9AM-5PM",
            "contactInfo": true
          },
          "phoneNum": "(530) 752-4926",
          "emailAdd": "felicita@ucdavis.edu",
          "webLink": "appliedscience.ucdavis.edu",
          "address": {
            "number": "1",
            "street": "Shields Ave.",
            "city": "Davis",
            "state": "CA",
            "zip": "95686"
          }
        },
        {
          "teaserPerson": true,
          "img": {
            "thumbnail": {
              "src": "http://lorempixel.com/200/200/people/3",
              "alt": "News photo"
            }
          },
          "person": {
            "headline": "Stan Albert",
            "title": "Laboratory Assistant",
            "dept": "Biological and Agricultural Engineering",
            "location": "Mrak Hall",
            "address": true,
            "officeHours": "9AM-5PM",
            "contactInfo": true
          },
          "phoneNum": "(530) 752-4446",
          "emailAdd": "sgalbert@ucdavis.edu",
          "webLink": "ucdavis.edu",
          "address": {
            "number": "1",
            "street": "Shields Ave.",
            "city": "Davis",
            "state": "CA",
            "zip": "95616"
          },
          "teaserSummary": false
        },
        {
          "teaserPerson": true,
          "img": {
            "thumbnail": {
              "src": "http://lorempixel.com/200/200/people/9",
              "alt": "News photo"
            }
          },
          "person": {
            "headline": "Olivia Lizbeth",
            "title": "Manager",
            "dept": "Mathematics",
            "location": "Tupper Hall, Room 22",
            "address": true,
            "officeHours": "10AM-3PM",
            "contactInfo": false
          },
          "address": {
            "number": "1",
            "street": "Shields Ave.",
            "city": "Davis",
            "state": "CA",
            "zip": "95616"
          },
          "teaserSummary": false
        },
        {
          "teaserPerson": true,
          "img": {
            "thumbnail": {
              "src": "/public/images/sample/person-profile.png",
              "alt": "User image placeholder."
            }
          },
          "person": {
            "headline": "Charlton Georgiy",
            "title": "Animal Health Technician",
            "dept": "School of Veterinary Medicine",
            "location": "Raptor Center",
            "address": true,
            "officeHours": "7AM-3PM",
            "contactInfo": true
          },
          "phoneNum": "(530) 752-4489",
          "emailAdd": "ccgeorgiy@ucdavis.edu",
          "webLink": "ucdavis.edu",
          "address": {
            "number": "2228",
            "street": "Old Davis Rd.",
            "city": "Davis",
            "state": "CA",
            "zip": "95616"
          },
          "teaserSummary": false
        }
      ]
    },
    {
      "peopleGroupTitle": "Staff",
      "peopleList": [
        {
          "teaserPerson": true,
          "img": {
            "thumbnail": {
              "src": "http://lorempixel.com/200/200/people/1",
              "alt": "News photo"
            }
          },
          "address": {
            "number": "2944",
            "street": "Peach Street",
            "city": "Davis",
            "state": "CA",
            "zip": "95666"
          },
          "person": {
            "headline": "Ms. Janeka Elodia",
            "title": "Web Developer",
            "dept": "IET",
            "location": "Suite 12, Jackson Building",
            "address": true,
            "officeHours": "9AM-5PM",
            "contactInfo": true
          },
          "phoneNum": "(530) 752-8126",
          "emailAdd": "janeka@ucdavis.edu",
          "webLink": "www.janeka.com",
          "teaserSummary": false
        },
        {
          "teaserPerson": true,
          "img": {
            "thumbnail": {
              "src": "/public/images/sample/person-profile.png",
              "alt": "User image placeholder."
            }
          },
          "person": {
            "headline": "Mrs. Felicita Roberta",
            "title": "Analyst",
            "dept": "Applied Science",
            "location": false,
            "address": true,
            "officeHours": "9AM-5PM",
            "contactInfo": true
          },
          "phoneNum": "(530) 752-4926",
          "emailAdd": "felicita@ucdavis.edu",
          "webLink": "appliedscience.ucdavis.edu",
          "address": {
            "number": "1",
            "street": "Shields Ave.",
            "city": "Davis",
            "state": "CA",
            "zip": "95686"
          }
        },
        {
          "teaserPerson": true,
          "img": {
            "thumbnail": {
              "src": "http://lorempixel.com/200/200/people/3",
              "alt": "News photo"
            }
          },
          "person": {
            "headline": "Stan Albert",
            "title": "Laboratory Assistant",
            "dept": "Biological and Agricultural Engineering",
            "location": "Mrak Hall",
            "address": true,
            "officeHours": "9AM-5PM",
            "contactInfo": true
          },
          "phoneNum": "(530) 752-4446",
          "emailAdd": "sgalbert@ucdavis.edu",
          "webLink": "ucdavis.edu",
          "address": {
            "number": "1",
            "street": "Shields Ave.",
            "city": "Davis",
            "state": "CA",
            "zip": "95616"
          },
          "teaserSummary": false
        },
        {
          "teaserPerson": true,
          "img": {
            "thumbnail": {
              "src": "http://lorempixel.com/200/200/people/9",
              "alt": "News photo"
            }
          },
          "person": {
            "headline": "Olivia Lizbeth",
            "title": "Manager",
            "dept": "Mathematics",
            "location": "Tupper Hall, Room 22",
            "address": true,
            "officeHours": "10AM-3PM",
            "contactInfo": false
          },
          "address": {
            "number": "1",
            "street": "Shields Ave.",
            "city": "Davis",
            "state": "CA",
            "zip": "95616"
          },
          "teaserSummary": false
        },
        {
          "teaserPerson": true,
          "img": {
            "thumbnail": {
              "src": "/public/images/sample/person-profile.png",
              "alt": "User image placeholder."
            }
          },
          "person": {
            "headline": "Charlton Georgiy",
            "title": "Animal Health Technician",
            "dept": "School of Veterinary Medicine",
            "location": "Raptor Center",
            "address": true,
            "officeHours": "7AM-3PM",
            "contactInfo": true
          },
          "phoneNum": "(530) 752-4489",
          "emailAdd": "ccgeorgiy@ucdavis.edu",
          "webLink": "ucdavis.edu",
          "address": {
            "number": "2228",
            "street": "Old Davis Rd.",
            "city": "Davis",
            "state": "CA",
            "zip": "95616"
          },
          "teaserSummary": false
        }
      ]
    },
    {
      "peopleGroupTitle": "Student",
      "peopleList": [
        {
          "teaserPerson": true,
          "img": {
            "thumbnail": {
              "src": "http://lorempixel.com/200/200/people/1",
              "alt": "News photo"
            }
          },
          "address": {
            "number": "2944",
            "street": "Peach Street",
            "city": "Davis",
            "state": "CA",
            "zip": "95666"
          },
          "person": {
            "headline": "Ms. Janeka Elodia",
            "title": "Web Developer",
            "dept": "IET",
            "location": "Suite 12, Jackson Building",
            "address": true,
            "officeHours": "9AM-5PM",
            "contactInfo": true
          },
          "phoneNum": "(530) 752-8126",
          "emailAdd": "janeka@ucdavis.edu",
          "webLink": "www.janeka.com",
          "teaserSummary": false
        },
        {
          "teaserPerson": true,
          "img": {
            "thumbnail": {
              "src": "/public/images/sample/person-profile.png",
              "alt": "User image placeholder."
            }
          },
          "person": {
            "headline": "Mrs. Felicita Roberta",
            "title": "Analyst",
            "dept": "Applied Science",
            "location": false,
            "address": true,
            "officeHours": "9AM-5PM",
            "contactInfo": true
          },
          "phoneNum": "(530) 752-4926",
          "emailAdd": "felicita@ucdavis.edu",
          "webLink": "appliedscience.ucdavis.edu",
          "address": {
            "number": "1",
            "street": "Shields Ave.",
            "city": "Davis",
            "state": "CA",
            "zip": "95686"
          }
        },
        {
          "teaserPerson": true,
          "img": {
            "thumbnail": {
              "src": "http://lorempixel.com/200/200/people/3",
              "alt": "News photo"
            }
          },
          "person": {
            "headline": "Stan Albert",
            "title": "Laboratory Assistant",
            "dept": "Biological and Agricultural Engineering",
            "location": "Mrak Hall",
            "address": true,
            "officeHours": "9AM-5PM",
            "contactInfo": true
          },
          "phoneNum": "(530) 752-4446",
          "emailAdd": "sgalbert@ucdavis.edu",
          "webLink": "ucdavis.edu",
          "address": {
            "number": "1",
            "street": "Shields Ave.",
            "city": "Davis",
            "state": "CA",
            "zip": "95616"
          },
          "teaserSummary": false
        },
        {
          "teaserPerson": true,
          "img": {
            "thumbnail": {
              "src": "http://lorempixel.com/200/200/people/9",
              "alt": "News photo"
            }
          },
          "person": {
            "headline": "Olivia Lizbeth",
            "title": "Manager",
            "dept": "Mathematics",
            "location": "Tupper Hall, Room 22",
            "address": true,
            "officeHours": "10AM-3PM",
            "contactInfo": false
          },
          "address": {
            "number": "1",
            "street": "Shields Ave.",
            "city": "Davis",
            "state": "CA",
            "zip": "95616"
          },
          "teaserSummary": false
        },
        {
          "teaserPerson": true,
          "img": {
            "thumbnail": {
              "src": "/public/images/sample/person-profile.png",
              "alt": "User image placeholder."
            }
          },
          "person": {
            "headline": "Charlton Georgiy",
            "title": "Animal Health Technician",
            "dept": "School of Veterinary Medicine",
            "location": "Raptor Center",
            "address": true,
            "officeHours": "7AM-3PM",
            "contactInfo": true
          },
          "phoneNum": "(530) 752-4489",
          "emailAdd": "ccgeorgiy@ucdavis.edu",
          "webLink": "ucdavis.edu",
          "address": {
            "number": "2228",
            "street": "Old Davis Rd.",
            "city": "Davis",
            "state": "CA",
            "zip": "95616"
          },
          "teaserSummary": false
        }
      ]
    }
  ]
}
